{"requestType":"trip","requestVersion":5,"options":{"title":"My Trip","earthRadius":"3958.8","optimization":"none"},"places":[{"id":"00AK","name":"Lowell Field","municipality":"Anchor Point","type":"small_airport","latitude":"59.94919968","longitude":"-151.695999146"},{"id":"00AL","name":"Epps Airpark","municipality":"Harvest","type":"small_airport","latitude":"34.86479949951172","longitude":"-86.77030181884766"},{"id":"00AR","name":"Newport Hospital & Clinic Heliport","municipality":"Newport","type":"heliport","latitude":"35.608699798583984","longitude":"-91.25489807128906"},{"id":"00AZ","name":"Cordes Airport","municipality":"Cordes","type":"small_airport","latitude":"34.305599212646484","longitude":"-112.16500091552734"},{"id":"00CA","name":"Goldstone /Gts/ Airport","municipality":"Barstow","type":"small_airport","latitude":"35.350498199499995","longitude":"-116.888000488"},{"id":"00CO","name":"Cass Field","municipality":"Briggsdale","type":"small_airport","latitude":"40.62220001220703","longitude":"-104.34400177001953"},{"id":"00FA","name":"Grass Patch Airport","municipality":"Bushnell","type":"small_airport","latitude":"28.64550018310547","longitude":"-82.21900177001953"},{"id":"00FD","name":"Ringhaver Heliport","municipality":"Riverview","type":"heliport","latitude":"28.846599578857422","longitude":"-82.34539794921875"},{"id":"00FL","name":"River Oak Airport","municipality":"Okeechobee","type":"small_airport","latitude":"27.230899810791016","longitude":"-80.96920013427734"},{"id":"00GA","name":"Lt World Airport","municipality":"Lithonia","type":"small_airport","latitude":"33.76750183105469","longitude":"-84.06829833984375"},{"id":"00GE","name":"Caffrey Heliport","municipality":"Hiram","type":"heliport","latitude":"33.88420104980469","longitude":"-84.73390197753906"},{"id":"00HI","name":"Kaupulehu Heliport","municipality":"Kailua/Kona","type":"heliport","latitude":"19.832500457763672","longitude":"-155.98199462890625"},{"id":"00ID","name":"Delta Shores Airport","municipality":"Clark Fork","type":"small_airport","latitude":"48.145301818847656","longitude":"-116.21399688720703"},{"id":"00II","name":"Bailey Generation Station Heliport","municipality":"Chesterton","type":"heliport","latitude":"41.644500732421875","longitude":"-87.122802734375"},{"id":"00IL","name":"Hammer Airport","municipality":"Polo","type":"small_airport","latitude":"41.97840118408203","longitude":"-89.5604019165039"},{"id":"00IN","name":"St Mary Medical Center Heliport","municipality":"Hobart","type":"heliport","latitude":"41.51139831542969","longitude":"-87.2605972290039"},{"id":"00IS","name":"Hayenga's Cant Find Farms Airport","municipality":"Kings","type":"small_airport","latitude":"40.02560043334961","longitude":"-89.1229019165039"},{"id":"00KS","name":"Hayden Farm Airport","municipality":"Gardner","type":"small_airport","latitude":"38.72779846191406","longitude":"-94.93049621582031"},{"id":"00KY","name":"Robbins Roost Airport","municipality":"Stanford","type":"small_airport","latitude":"37.409400939941406","longitude":"-84.61969757080078"},{"id":"00LA","name":"Shell Chemical East Site Heliport","municipality":"Gonzales","type":"heliport","latitude":"30.191944","longitude":"-90.980833"},{"id":"00LL","name":"Ac & R Components Heliport","municipality":"Chatham","type":"heliport","latitude":"39.66529846191406","longitude":"-89.70559692382812"},{"id":"00LS","name":"Lejeune Airport","municipality":"Esterwood","type":"small_airport","latitude":"30.13629913330078","longitude":"-92.42939758300781"},{"id":"00MD","name":"Slater Field","municipality":"Federalsburg","type":"small_airport","latitude":"38.75709915161133","longitude":"-75.75379943847656"},{"id":"00MI","name":"Dow Chemical Heliport","municipality":"Ludington","type":"heliport","latitude":"43.94940185546875","longitude":"-86.41670227050781"},{"id":"00MN","name":"Battle Lake Municipal Airport","municipality":"Battle Lake","type":"small_airport","latitude":"46.29999923706055","longitude":"-95.70030212402344"},{"id":"00MO","name":"Cooper Flying Service Airport","municipality":"Alba","type":"small_airport","latitude":"37.202800750732","longitude":"-94.412399291992"},{"id":"00MT","name":"Sands Ranch Airport","municipality":"Havre","type":"small_airport","latitude":"48.537498474121094","longitude":"-109.70500183105469"},{"id":"00N","name":"Bucks Airport","municipality":"Bridgeton","type":"small_airport","latitude":"39.473201751708984","longitude":"-75.1852035522461"},{"id":"00NC","name":"North Raleigh Airport","municipality":"Louisburg","type":"small_airport","latitude":"36.085201263427734","longitude":"-78.37139892578125"},{"id":"00NJ","name":"Colgate-Piscataway Heliport","municipality":"New Brunswick","type":"heliport","latitude":"40.52090072631836","longitude":"-74.47460174560547"},{"id":"00NK","name":"Cliche Cove Seaplane Base","municipality":"Beekmantown","type":"seaplane_base","latitude":"44.8118612","longitude":"-73.3698057"},{"id":"00NY","name":"Weiss Airfield","municipality":"West Bloomfield","type":"small_airport","latitude":"42.90010070800781","longitude":"-77.49970245361328"},{"id":"00OH","name":"Exit 3 Airport","municipality":"Wauseon","type":"small_airport","latitude":"41.59090042114258","longitude":"-84.14219665527344"},{"id":"00OI","name":"Miami Valley Hospital Heliport","municipality":"Dayton","type":"heliport","latitude":"39.74530029296875","longitude":"-84.1874008178711"},{"id":"00OR","name":"Steel Systems Heliport","municipality":"Salem","type":"heliport","latitude":"44.932899475097656","longitude":"-123.12999725341797"},{"id":"00PA","name":"R J D Heliport","municipality":"Coatesville","type":"heliport","latitude":"39.94889831542969","longitude":"-75.74690246582031"},{"id":"00PN","name":"Ferrell Field","municipality":"Mercer","type":"small_airport","latitude":"41.2995","longitude":"-80.211111"},{"id":"00PS","name":"Thomas Field","municipality":"Loysville","type":"small_airport","latitude":"40.37779998779297","longitude":"-77.36530303955078"},{"id":"00S","name":"Mc Kenzie Bridge State Airport","municipality":"Mc Kenzie Bridge","type":"small_airport","latitude":"44.183200836199994","longitude":"-122.088996887"},{"id":"00SC","name":"Flying O Airport","municipality":"Sumter","type":"small_airport","latitude":"34.0093994140625","longitude":"-80.26719665527344"},{"id":"00TA","name":"Sw Region Faa Heliport","municipality":"Fort Worth","type":"heliport","latitude":"32.826900482177734","longitude":"-97.30580139160156"},{"id":"00TE","name":"Tcjc-Northeast Campus Heliport","municipality":"Fort Worth","type":"heliport","latitude":"32.847599029541016","longitude":"-97.18949890136719"},{"id":"00TN","name":"Ragsdale Road Airport","municipality":"Manchester","type":"small_airport","latitude":"35.515899658203125","longitude":"-85.95359802246094"},{"id":"00TS","name":"Alpine Range Airport","municipality":"Everman","type":"small_airport","latitude":"32.607601165771484","longitude":"-97.24199676513672"},{"id":"00TX","name":"San Jacinto Methodist Hospital Heliport","municipality":"Baytown","type":"heliport","latitude":"29.737699508666992","longitude":"-94.9802017211914"},{"id":"00UT","name":"Clear Creek Ranch Airport","municipality":"Kanab","type":"closed","latitude":"37.247798919677734","longitude":"-112.8219985961914"},{"id":"00VA","name":"Vaughan Airport","municipality":"Alton","type":"small_airport","latitude":"36.57600021","longitude":"-78.9991684"},{"id":"00VI","name":"Groundhog Mountain Airport","municipality":"Hillsville","type":"small_airport","latitude":"36.663299560546875","longitude":"-80.49949645996094"},{"id":"00W","name":"Lower Granite State Airport","municipality":"Colfax","type":"small_airport","latitude":"46.673500061035","longitude":"-117.44300079346"},{"id":"00WA","name":"Howell Airport","municipality":"Longbranch","type":"small_airport","latitude":"47.17839813232422","longitude":"-122.77200317382812"},{"id":"00WI","name":"Northern Lite Airport","municipality":"Waupaca","type":"small_airport","latitude":"44.304298400878906","longitude":"-89.05010223388672"},{"id":"00WN","name":"Hawks Run Airport","municipality":"Asotin","type":"small_airport","latitude":"46.25","longitude":"-117.2490005493164"},{"id":"00WV","name":"Lazy J. Aerodrome","municipality":"Beverly","type":"small_airport","latitude":"38.82889938354492","longitude":"-79.86609649658203"},{"id":"00XS","name":"L P Askew Farms Airport","municipality":"O'Donnell","type":"small_airport","latitude":"33.03340148925781","longitude":"-101.93399810791016"},{"id":"01A","name":"Purkeypile Airport","municipality":"Purkeypile","type":"small_airport","latitude":"62.943599700927734","longitude":"-152.27000427246094"},{"id":"01AK","name":"Providence Seward Medical Center Heliport","municipality":"Seward","type":"heliport","latitude":"60.105873975399994","longitude":"-149.446249008"},{"id":"01AL","name":"Ware Island Airport","municipality":"Clanton","type":"small_airport","latitude":"32.94599914550781","longitude":"-86.51390075683594"},{"id":"01AR","name":"Community Hospital of De Queen Heliport","municipality":"De Queen","type":"heliport","latitude":"34.047298431396484","longitude":"-94.35489654541016"},{"id":"01AZ","name":"Yat Heliport","municipality":"Camp Verde","type":"heliport","latitude":"34.60810089111328","longitude":"-111.86499786376953"},{"id":"01C","name":"Grant Airport","municipality":"Grant","type":"closed","latitude":"43.341701507568","longitude":"-85.775001525879"},{"id":"01CA","name":"Lugo Substation Heliport","municipality":"Hesperia","type":"heliport","latitude":"34.368240591699994","longitude":"-117.370058745"},{"id":"01CL","name":"Swansboro Country Airport","municipality":"Placerville","type":"small_airport","latitude":"38.79990005493164","longitude":"-120.73400115966797"},{"id":"01CN","name":"Los Angeles County Sheriff's Department Heliport","municipality":"Los Angeles","type":"heliport","latitude":"34.03779983520508","longitude":"-118.15399932861328"},{"id":"01CO","name":"St Vincent General Hospital Heliport","municipality":"Leadville","type":"heliport","latitude":"39.24530029296875","longitude":"-106.24600219726562"},{"id":"01CT","name":"Berlin Fairgrounds Heliport","municipality":"Berlin","type":"heliport","latitude":"41.62730026245117","longitude":"-72.72750091552734"},{"id":"01FA","name":"Rybolt Ranch Airport","municipality":"Orlando","type":"small_airport","latitude":"28.589399337768555","longitude":"-81.14420318603516"},{"id":"01FD","name":"Florida Hospital-Altamonte Heliport","municipality":"Altamonte Springs","type":"heliport","latitude":"28.666400909423828","longitude":"-81.37059783935547"},{"id":"01FL","name":"Cedar Knoll Flying Ranch Airport","municipality":"Geneva","type":"small_airport","latitude":"28.78190040588379","longitude":"-81.1592025756836"},{"id":"01GA","name":"Medical Center Heliport","municipality":"Columbus","type":"heliport","latitude":"32.47930145263672","longitude":"-84.9791030883789"},{"id":"01GE","name":"The Farm Airport","municipality":"Wrightsville","type":"small_airport","latitude":"32.674400329589844","longitude":"-82.77110290527344"},{"id":"01IA","name":"Stender Airport","municipality":"Maysville","type":"small_airport","latitude":"41.66109848022461","longitude":"-90.74130249023438"},{"id":"01ID","name":"Lava Hot Springs Airport","municipality":"Lava Hot Springs","type":"small_airport","latitude":"42.60820007324219","longitude":"-112.03199768066406"},{"id":"01II","name":"Myers Field","municipality":"Lizton","type":"small_airport","latitude":"39.8849983215332","longitude":"-86.50669860839844"},{"id":"01IL","name":"Hoopeston Community Memorial Hospital Heliport","municipality":"Hoopeston","type":"heliport","latitude":"40.45859909057617","longitude":"-87.65950012207031"},{"id":"01IN","name":"Community Hospital Heliport","municipality":"Anderson","type":"heliport","latitude":"40.13090133666992","longitude":"-85.69580078125"},{"id":"01IS","name":"William E. Koenig Airport","municipality":"Dow","type":"small_airport","latitude":"39.01620101928711","longitude":"-90.31819915771484"},{"id":"01J","name":"Hilliard Airpark","municipality":"Hilliard","type":"small_airport","latitude":"30.68630027770996","longitude":"-81.90570068359375"},{"id":"01K","name":"Caldwell Municipal Airport","municipality":"Caldwell","type":"small_airport","latitude":"37.03609848022461","longitude":"-97.5864028930664"},{"id":"01KS","name":"Flying N Ranch Airport","municipality":"Lost Springs","type":"small_airport","latitude":"38.54059982299805","longitude":"-97.00330352783203"},{"id":"01KY","name":"Lourdes Hospital Heliport","municipality":"Paducah","type":"heliport","latitude":"37.051700592041016","longitude":"-88.64689636230469"},{"id":"01LA","name":"Barham Airport","municipality":"Oak Ridge","type":"small_airport","latitude":"32.638999938964844","longitude":"-91.77369689941406"},{"id":"01LL","name":"Schumaier Restricted Landing Area","municipality":"Pinckneyville","type":"small_airport","latitude":"38.12580108642578","longitude":"-89.46389770507812"},{"id":"01LS","name":"Country Breeze Airport","municipality":"Slaughter","type":"small_airport","latitude":"30.70599937438965","longitude":"-91.07740020751953"},{"id":"01MA","name":"Compaq Andover Heliport","municipality":"Andover","type":"heliport","latitude":"42.625099182128906","longitude":"-71.18009948730469"},{"id":"01MD","name":"Annapolis Seaplane Base","municipality":"Annapolis","type":"seaplane_base","latitude":"38.999199","longitude":"-76.456001"},{"id":"01ME","name":"Saint Peter's Seaplane Base","municipality":"Portage Lake","type":"seaplane_base","latitude":"46.778900146484375","longitude":"-68.50029754638672"},{"id":"01MI","name":"Flow Through Terminal Heliport","municipality":"Flint","type":"heliport","latitude":"43.04949951171875","longitude":"-83.67970275878906"},{"id":"01MN","name":"Barnes Seaplane Base","municipality":"Cook","type":"seaplane_base","latitude":"47.899600982666016","longitude":"-92.55740356445312"},{"id":"01MO","name":"Highway Patrol Troop C Headquarters Heliport","municipality":"Town and Country","type":"heliport","latitude":"38.641700744628906","longitude":"-90.48429870605469"},{"id":"01MT","name":"Crystal Lakes Resort Airport","municipality":"Fortine","type":"small_airport","latitude":"48.789100646972656","longitude":"-114.87999725341797"},{"id":"01NC","name":"Topsail Airpark","municipality":"Holly Ridge","type":"small_airport","latitude":"34.47529983520508","longitude":"-77.5813980102539"},{"id":"01NE","name":"Detour Airport","municipality":"Wellfleet","type":"small_airport","latitude":"40.84360122680664","longitude":"-100.65299987792969"},{"id":"01NH","name":"Moore Airfield","municipality":"Enfield","type":"small_airport","latitude":"43.644500732421875","longitude":"-72.08699798583984"},{"id":"01NJ","name":"Albert Guido Memorial Heliport","municipality":"Newark","type":"heliport","latitude":"40.741798400878906","longitude":"-74.13710021972656"},{"id":"01NM","name":"Champion Ranch Airport","municipality":"Artesia","type":"small_airport","latitude":"33.008611","longitude":"-104.540278"},{"id":"01NV","name":"Lantana Ranch Airport","municipality":"Yerington","type":"small_airport","latitude":"38.76390075683594","longitude":"-119.0270004272461"},{"id":"01NY","name":"Vassar Hospital Heliport","municipality":"Poughkeepsie","type":"heliport","latitude":"41.70009994506836","longitude":"-73.94960021972656"},{"id":"01OI","name":"Galion Community Hospital Heliport","municipality":"Galion","type":"heliport","latitude":"40.73059844970703","longitude":"-82.80159759521484"},{"id":"01OK","name":"Lawrence Airport","municipality":"Eakly","type":"small_airport","latitude":"35.294498443603516","longitude":"-98.6364974975586"},{"id":"01OR","name":"Red & White Flying Service Airport","municipality":"Silver Lake","type":"small_airport","latitude":"43.119300842285156","longitude":"-121.04499816894531"}]}