{"requestType":"trip","requestVersion":4,"options":{"title":"My Trip","earthRadius":"3958.8","optimization":"none"},"places":[{"name":"Spice Trade Brewing","municipality":"Arvada","latitude":"39.802332","longitude":"-105.079015","altitude":"5347"},{"name":"Aspen Brewing Company","municipality":"Aspen","latitude":"39.19","longitude":"-106.82","altitude":"7854"},{"name":"Peak to Peak Tap & Brew","municipality":"Aurora","latitude":"39.67","longitude":"-104.79","altitude":"5547"},{"name":"Avery Brewing Company","municipality":"Boulder","latitude":"40.03","longitude":"-105.12","altitude":"5197"},{"name":"Boulder Beer Company","municipality":"Boulder","latitude":"40.03","longitude":"-105.25","altitude":"5270"},{"name":"Twisted Pine Brewing Company","municipality":"Boulder","latitude":"40.0206","longitude":"-105.2508","altitude":"5285"},{"name":"Upslope Brewing Company","municipality":"Boulder","latitude":"40.020197","longitude":"-105.218347","altitude":"5223"},{"name":"Walnutbrewery","municipality":"Boulder","latitude":"40.0169","longitude":"-105.2803","altitude":"1990"},{"name":"wild woods brewery","municipality":"Boulder","latitude":"40.01","longitude":"-105.13","altitude":"5219"},{"name":"Breckenridge Brewery and Pub","municipality":"Breckenridge","latitude":"39.2834","longitude":"-106.0238","altitude":"9642"},{"name":"Broken Compass Brewing","municipality":"Breckenridge","latitude":"39.5148","longitude":"-106.0534","altitude":"9380"},{"name":"Flood Stage Alework","municipality":"Brighton","latitude":"39.984113","longitude":"-104.821828","altitude":"4984"},{"name":"4 Noses Brewing Company","municipality":"Broomfield","latitude":"39.906493","longitude":"-105.098653","altitude":"5522"},{"name":"Wonderland Brewing","municipality":"Broomfield","latitude":"39.395504","longitude":"-105.0309","altitude":"5311"},{"name":"105 West Brewing Company","municipality":"Castle Rock","latitude":"39.3807478","longitude":"-104.8660237","altitude":"6154"},{"name":"Blue Spruce Brewing Company","municipality":"Centennial","latitude":"39.566","longitude":"-104.939","altitude":"5709"},{"name":"Halfpenny Brewing Company","municipality":"Centennial","latitude":"39.59","longitude":"-104.93","altitude":"5603"},{"name":"Two22 Brew","municipality":"Centennial","latitude":"39.64","longitude":"-104.76","altitude":"5825"},{"name":"Gold Camp Brewing","municipality":"Colorado Springs","latitude":"38.8193","longitude":"-104.8233","altitude":"5923"},{"name":"Nano 108 Brewing","municipality":"Colorado Springs","latitude":"38.8667","longitude":"-104.7175","altitude":"6391"},{"name":"Smiling Toad Brewery","municipality":"Colorado Springs","latitude":"38.8065","longitude":"-104.8385","altitude":"1835"},{"name":"Trinity Brewing Company","municipality":"Colorado Springs","latitude":"38.9","longitude":"-104.8565","altitude":"6364"},{"name":"Whistle Pig Brewing","municipality":"Colorado Springs","latitude":"38.92","longitude":"-104.79","altitude":"6447"},{"name":"10 Barrel Brewing","municipality":"Denver","latitude":"39.759403","longitude":"-104.985519","altitude":"5218"},{"name":"Beryl's Beer Co.","municipality":"Denver","latitude":"39.764878","longitude":"-104.980409","altitude":"5203.412"},{"name":"Blue Moon Brewing Company","municipality":"Denver","latitude":"39.77","longitude":"-104.98","altitude":"5193"},{"name":"Bull & Bush Brewery","municipality":"Denver","latitude":"39.7","longitude":"-104.9308","altitude":"5373"},{"name":"Call to Arms Brewing Company","municipality":"Denver","latitude":"39.778870","longitude":"-105.043610","altitude":"5381"},{"name":"Copper Kettle Brewing Company","municipality":"Denver","latitude":"39.6927","longitude":"-104.8913","altitude":"5475"},{"name":"Crooked Stave","municipality":"Denver","latitude":"39.7804","longitude":"-105.0047","altitude":"5276"},{"name":"Declaration Brewing","municipality":"Denver","latitude":"39.4046","longitude":"-104.5927","altitude":"5276"},{"name":"Denver Beer Co","municipality":"Denver","latitude":"39.76","longitude":"-105.01","altitude":"5249"},{"name":"Goldspot Brewing","municipality":"Denver","latitude":"39.7868924","longitude":"-105.0343545","altitude":"5369"},{"name":"Grandma's House","municipality":"Denver","latitude":"39.69","longitude":"-104.98","altitude":"5275"},{"name":"Lowdown Brewery","municipality":"Denver","latitude":"39.738450","longitude":"-104.984850","altitude":"5280"},{"name":"Oasis Brewing Company","municipality":"Denver","latitude":"39.763990","longitude":"-105.034640","altitude":"5230"},{"name":"Prost Brewing Company","municipality":"Denver","latitude":"39.761412","longitude":"-105.006592","altitude":"5197"},{"id":"kaseda","name":"Ratio Beerworks","municipality":"Denver","latitude":"39.7661","longitude":"-104.9836","altitude":"5177"},{"name":"Renegade Brewing Company","municipality":"Denver","latitude":"39.7308","longitude":"-104.99926","altitude":"5256"},{"name":"River North Brewery","municipality":"Denver","latitude":"39.767222","longitude":"-104.977222","altitude":"5282"},{"name":"Wit's End Brewing Company","municipality":"Denver","latitude":"39.737246","longitude":"-105.014757","altitude":"5204"},{"name":"Zuni Street Brewing Company","municipality":"Denver","latitude":"39.76","longitude":"-105.01","altitude":"5282"},{"name":"Pug Ryans Brewery","municipality":"Dillon","latitude":"39.37","longitude":"-106.02","altitude":"9087"},{"name":"Dolores River Brewing","municipality":"Dolores","latitude":"37.4736","longitude":"-108.5048","altitude":"6936"},{"name":"SKA Brewing Company","municipality":"Durango","latitude":"37.1410","longitude":"-107.5243","altitude":"6512"},{"name":"Gore Range Brewery","municipality":"Edwards","latitude":"39.6446","longitude":"-106.5997","altitude":"7227"},{"id":"jetl","name":"Lumpy Ridge Brewing Company","municipality":"Estes Park","latitude":"40.2208","longitude":"-105.3016","altitude":"7611"},{"name":"South Park Brewing Company","municipality":"Fairplay","latitude":"39.13","longitude":"-105.59","altitude":"9953"},{"name":"Black Bottle Brewery","municipality":"Fort Collins","latitude":"40.57","longitude":"-105.08","altitude":"5002"},{"name":"Coopersmith's Pub & Brewing","municipality":"Fort Collins","latitude":"40.59","longitude":"-105.08","altitude":"4983"},{"name":"Equinox brewing","municipality":"Fort Collins","latitude":"40.586391","longitude":"-105.075813","altitude":"4977.034"},{"name":"Funkwerks","municipality":"Fort Collins","latitude":"40.58","longitude":"-105.04","altitude":"4932"},{"name":"Horse & Dragon","municipality":"Fort Collins","latitude":"40.59","longitude":"-105.05","altitude":"4927"},{"name":"New Belgium Brewing Company","municipality":"Fort Collins","latitude":"40.35","longitude":"-105.04","altitude":"4983"},{"name":"Odell Brewing Company","municipality":"Fort Collins","latitude":"40.589614","longitude":"-105.063203","altitude":"4954"},{"name":"Purpose Brewing and Cellars","municipality":"Fort Collins","latitude":"40.53","longitude":"-105.08","altitude":"5054"},{"name":"Red Truck Beer Company","municipality":"Fort Collins","latitude":"40.589142","longitude":"-105.058415","altitude":"4940"},{"name":"Suds Brothers Brewing","municipality":"Fruita","latitude":"39.16","longitude":"-108.73","altitude":"4514"},{"name":"Edgewater Brewery","municipality":"Grand Junction","latitude":"39.06","longitude":"-108.56","altitude":"4606"},{"name":"Brix Taphouse & Brewery","municipality":"Greeley","latitude":"40.4251686","longitude":"-104.69156403","altitude":"4676"},{"name":"Yampa Valley Brewing Company","municipality":"Hayden","latitude":"40.4956","longitude":"-107.2575","altitude":"1934"},{"name":"Living The Dream Brewery","municipality":"Highlands Ranch","latitude":"39.54","longitude":"-105.04","altitude":"5531"},{"name":"Tommyknocker Brewery and Pub","municipality":"Idaho Springs","latitude":"39.44","longitude":"-105.31","altitude":"7556"},{"name":"WestFax Brewing Company","municipality":"Lakewood","latitude":"39","longitude":"-105","altitude":"5426.5"},{"name":"Lone Tree Brewing Company","municipality":"Lone Tree","latitude":"39.56","longitude":"-104.89","altitude":"5784"},{"name":"Left Hand Brewing Company","municipality":"Longmont","latitude":"40.09","longitude":"-105.06","altitude":"4967"},{"name":"Oskar Blues Brewery","municipality":"Longmont","latitude":"40.137056","longitude":"-105.121490","altitude":"4980"},{"name":"Pumphouse Brewery","municipality":"Longmont","latitude":"40.17","longitude":"-105.10","altitude":"4986"},{"name":"Skeye Brewing","municipality":"Longmont","latitude":"40.15","longitude":"-105.13","altitude":"4626"},{"name":"Wibby Brewing","municipality":"Longmont","latitude":"40.16237","longitude":"-105.10017","altitude":"4954"},{"name":"Big Beaver Brewing Company","municipality":"Loveland","latitude":"40.406","longitude":"-105.1028","altitude":"5032.8"},{"name":"Saint Patrick's Brewing Company","municipality":"Littleton","latitude":"39.3647","longitude":"-105.0128","altitude":"5313"},{"name":"Horsefly Brewing Company","municipality":"Montrose","latitude":"38.97","longitude":"-107.87","altitude":"5813"},{"name":"Pikes Peak Brewing Company","municipality":"Monument","latitude":"39.10","longitude":"-104.86","altitude":"7040"},{"name":"Very Nice Brewing Company","municipality":"Nederland","latitude":"39.96","longitude":"-105.51","altitude":"8241"},{"name":"Powder Keg Brewing Company","municipality":"Niwot","latitude":"40.1034","longitude":"-105.1729","altitude":"5094"},{"name":"Ouray Brewery","municipality":"Ouray","latitude":"38.023033","longitude":"-107.671268","altitude":"7772.3"},{"name":"Riff Raff Brewing Company","municipality":"Pagosa Springs","latitude":"37.27","longitude":"-107.01","altitude":"7126"},{"name":"Hall Brewing Company","municipality":"Parker","latitude":"39.5172","longitude":"-104.7631","altitude":"5850"},{"name":"Elevation Beer Company","municipality":"Poncha Springs","latitude":"38.51819505","longitude":"-106.06546977","altitude":"7438"},{"name":"Shamrock Brewing","municipality":"Pueblo","latitude":"38.270","longitude":"-104.608","altitude":"4685.890"},{"name":"Moonlight Pizza & Brewery","municipality":"Salida","latitude":"38.5348","longitude":"-105.9934","altitude":"7066"},{"name":"Vail Brewing Company","municipality":"Vail","latitude":"39.64222222","longitude":"-106.375278","altitude":"8179"},{"name":"wild woods brewery","municipality":"Boulder","latitude":"40.01","longitude":"-105.13","altitude":"5219"},{"name":"Storm Peak Brewing Company","municipality":"Steamboat Springs","latitude":"40.5","longitude":"-106.5118","altitude":"6680"},{"name":"Beer by Design Brewing","municipality":"Thornton","latitude":"39.90","longitude":"-104.94","altitude":"5269"},{"name":"Mother Tucker Brewery","municipality":"Thornton","latitude":"39.9134","longitude":"-104.9569","altitude":"5292"},{"name":"High Hops Brewery","municipality":"Windsor","latitude":"40.28","longitude":"-104.56","altitude":"4806"},{"name":"Ute Pass Brewing","municipality":"Woodland Park","latitude":"38.99445","longitude":"-105.0513","altitude":"8465"},{"name":"Colorado Plus","municipality":"Wheat Ridge","latitude":"39.77","longitude":"-105.07","altitude":"5413"},{"name":"Oskar Blues Brewery","municipality":"Longmont","latitude":"40.137056","longitude":"-105.121490","altitude":"4980"},{"name":"300 Suns Brewing","municipality":"Longmont","latitude":"40.0932","longitude":"-105.0553","altitude":"1506"},{"name":"Avalanche Brewing Company","municipality":"Silverton","latitude":"37.4836","longitude":"-107.4001","altitude":"9298"},{"name":"WestFax Brewing Company","municipality":"Lakewood","latitude":"39","longitude":"-105","altitude":"5426.5"},{"name":"Breckenridge Brewery and Pub","municipality":"Breckenridge","latitude":"39.2834","longitude":"-106.0238","altitude":"9642"},{"id":"relphlm","name":"Yak & Yeti restaraunt & Brewpub","municipality":"Arvada","latitude":"39.80","longitude":"-105.08","altitude":"5321"},{"name":"Twisted Pine Brewing Company","municipality":"Boulder","latitude":"40.0206","longitude":"-105.2508","altitude":"5285"},{"name":"Animas Brewing Company","municipality":"Durango","latitude":"37.1648","longitude":"-107.5236","altitude":"1988"}]}